[
  {
    "id": "sportsman-lounge-sb",
    "name": "Featured - Sportsman Lounge",
    "promoted": true,
    "address": "1226 State St, Santa Barbara, CA 93101",
    "city": "Santa Barbara",
    "state": "CA",
    "zipcode": "93101",
    "lat": 34.4241986,
    "lng": -119.7051633,
    "info": "Local hangout spot, 21+, complete bar service, alcohol-free cocktails, non-alcoholic beers.",
    "venueType": "Bar",
    "website": "",
    "phone": "",
    "hours": "",
    "tags": ["local", "21+", "alcohol-free"],
    "emoji": "\ud83c\udf78",
    "featuredDrinks": [],
    "instagram": "",
    "facebook": "",
    "confirmed": false,
    "featured": true
  },
  {
    "id": "break-time-goleta",
    "name": "Featured - Break Time",
    "promoted": true,
    "address": "5977 Encina Rd, Goleta, CA 93117",
    "city": "Goleta",
    "state": "CA",
    "zipcode": "93117",
    "lat": 34.4429072,
    "lng": -119.8298843,
    "info": "Local hangout spot, 21+, complete bar service, alcohol-free cocktails, non-alcoholic beers.",
    "venueType": "Bar",
    "website": "",
    "phone": "",
    "hours": "",
    "tags": ["local", "21+", "alcohol-free"],
    "emoji": "\ud83c\udf79",
    "featuredDrinks": [],
    "instagram": "",
    "facebook": "",
    "confirmed": false,
    "featured": true
  },
  {
    "id": "bank-of-italy-ventura",
    "name": "Bank of Italy - Cocktail Trust",
    "promoted": false,
    "address": "394 E Main St, Ventura, CA 93001",
    "city": "Ventura",
    "state": "CA",
    "zipcode": "93001",
    "lat": 34.2807308,
    "lng": -119.2948552,
    "info": "New-entry - unverified. Landmark cocktail venue offering Italian-inspired alcohol-free cocktails like 'A Spa Day' and 'Vacation by the Sea'.",
    "venueType": "Bar",
    "website": "",
    "phone": "",
    "hours": "",
    "tags": ["cocktail", "italian", "alcohol-free"],
    "emoji": "\ud83c\udf79",
    "featuredDrinks": [],
    "instagram": "",
    "facebook": "",
    "confirmed": false,
    "featured": false
  },
  {
    "id": "caya-restaurant-goleta",
    "name": "CAYA Restaurant",
    "promoted": false,
    "address": "5672 Calle Real, Goleta, CA 93117",
    "city": "Goleta",
    "state": "CA",
    "zipcode": "93117",
    "lat": 34.4412018,
    "lng": -119.8219737,
    "info": "New-entry - unverified. Refined restaurant serving a Sparkling Lavender Lemonade made with house-made lavender syrup.",
    "venueType": "Restaurant",
    "website": "",
    "phone": "",
    "hours": "",
    "tags": ["restaurant", "mocktail", "refined"],
    "emoji": "\ud83c\udf4b",
    "featuredDrinks": [],
    "instagram": "",
    "facebook": "",
    "confirmed": false,
    "featured": false
  },
  {
    "id": "coastline-brewing-oxnard",
    "name": "Coastline Brewing & Taproom",
    "promoted": false,
    "address": "Oxnard, CA",
    "city": "Oxnard",
    "state": "CA",
    "zipcode": "",
    "lat": 34.1976308,
    "lng": -119.180381,
    "info": "New-entry - unverified. Craft brewery with non-alcoholic craft drinks.",
    "venueType": "Brewery",
    "website": "",
    "phone": "",
    "hours": "",
    "tags": ["brewery", "alcohol-free", "craft"],
    "emoji": "\ud83c\udf7a",
    "featuredDrinks": [],
    "instagram": "",
    "facebook": "",
    "confirmed": false,
    "featured": false
  },
  {
    "id": "dusk-bar-sb",
    "name": "Dusk Bar",
    "promoted": false,
    "address": "524 State St, Santa Barbara, CA 93101",
    "city": "Santa Barbara",
    "state": "CA",
    "zipcode": "93101",
    "lat": 34.4175929,
    "lng": -119.6961263,
    "info": "New-entry - unverified. Trendy bar inside the Drift Hotel, serving herb-infused alcohol-free cocktails.",
    "venueType": "Bar",
    "website": "",
    "phone": "",
    "hours": "",
    "tags": ["trendy", "hotel", "alcohol-free"],
    "emoji": "\ud83c\udf19",
    "featuredDrinks": [],
    "instagram": "",
    "facebook": "",
    "confirmed": false,
    "featured": false
  },
  {
    "id": "la-paloma-cafe-sb",
    "name": "La Paloma Café",
    "promoted": false,
    "address": "702 Anacapa St, Santa Barbara, CA 93101",
    "city": "Santa Barbara",
    "state": "CA",
    "zipcode": "93101",
    "lat": 34.4200155,
    "lng": -119.6968823,
    "info": "New-entry - unverified. Comfortable café known for its oat milk horchata and other mocktail options.",
    "venueType": "Cafe",
    "website": "",
    "phone": "",
    "hours": "",
    "tags": ["cafe", "mocktail", "cozy"],
    "emoji": "\u2615",
    "featuredDrinks": [],
    "instagram": "",
    "facebook": "",
    "confirmed": false,
    "featured": false
  },
  {
    "id": "latitude-34-camarillo",
    "name": "Latitude 34",
    "promoted": false,
    "address": "660 Ventura Blvd Suite 100, Camarillo, CA 93010",
    "city": "Camarillo",
    "state": "CA",
    "zipcode": "93010",
    "lat": 34.217136,
    "lng": -119.065816,
    "info": "New-entry - unverified. Bar known for its creative alcohol-free cocktails.",
    "venueType": "Bar",
    "website": "",
    "phone": "",
    "hours": "",
    "tags": ["bar", "creative", "alcohol-free"],
    "emoji": "\ud83c\udf79",
    "featuredDrinks": [],
    "instagram": "",
    "facebook": "",
    "confirmed": false,
    "featured": false
  },
  {
    "id": "milk-and-honey-sb",
    "name": "Milk & Honey Tapas",
    "promoted": false,
    "address": "30 W Anapamu St, Santa Barbara, CA 93101",
    "city": "Santa Barbara",
    "state": "CA",
    "zipcode": "93101",
    "lat": 34.422618,
    "lng": -119.7054507,
    "info": "New-entry - unverified. Spanish small-plates bar pairing small plates with crafted alcohol-free cocktails like the Fauxito.",
    "venueType": "Bar",
    "website": "",
    "phone": "",
    "hours": "",
    "tags": ["bar", "spanish", "alcohol-free"],
    "emoji": "\ud83e\udd42",
    "featuredDrinks": [],
    "instagram": "",
    "facebook": "",
    "confirmed": false,
    "featured": false
  },
  {
    "id": "oak-and-iron-camarillo",
    "name": "Oak & Iron",
    "promoted": false,
    "address": "1965 E Daily Dr, Camarillo, CA 93010",
    "city": "Camarillo",
    "state": "CA",
    "zipcode": "93010",
    "lat": 34.219317,
    "lng": -119.0658464,
    "info": "New-entry - unverified. Contemporary bar offering a selection of alcohol-free cocktails.",
    "venueType": "Bar",
    "website": "",
    "phone": "",
    "hours": "",
    "tags": ["bar", "contemporary", "alcohol-free"],
    "emoji": "\ud83c\udf79",
    "featuredDrinks": [],
    "instagram": "",
    "facebook": "",
    "confirmed": false,
    "featured": false
  },
  {
    "id": "rodeo-room-sb",
    "name": "Rodeo Room",
    "promoted": false,
    "address": "231 W Montecito St, Santa Barbara, CA 93101",
    "city": "Santa Barbara",
    "state": "CA",
    "zipcode": "93101",
    "lat": 34.411813,
    "lng": -119.695919,
    "info": "New-entry - unverified. Cozy rustic venue with bold mocktail offerings featuring tangy citrus punches.",
    "venueType": "Bar",
    "website": "",
    "phone": "",
    "hours": "",
    "tags": ["bar", "cozy", "alcohol-free"],
    "emoji": "\ud83c\udfe1",
    "featuredDrinks": [],
    "instagram": "",
    "facebook": "",
    "confirmed": false,
    "featured": false
  },
  {
    "id": "roof-top-bistro-goleta",
    "name": "Roof Top Bistro & Bar",
    "promoted": false,
    "address": "6500 Hollister Ave, Goleta, CA 93117",
    "city": "Goleta",
    "state": "CA",
    "zipcode": "93117",
    "lat": 34.4312241,
    "lng": -119.8555693,
    "info": "New-entry - unverified. Rooftop lounge offering craft alcohol-free cocktails with panoramic views of the Santa Ynez Mountains.",
    "venueType": "Bar",
    "website": "",
    "phone": "",
    "hours": "",
    "tags": ["bar", "rooftop", "alcohol-free"],
    "emoji": "\ud83c\udf06",
    "featuredDrinks": [],
    "instagram": "",
    "facebook": "",
    "confirmed": false,
    "featured": false
  },
  {
    "id": "sama-sama-kitchen-sb",
    "name": "Sama Sama Kitchen",
    "promoted": false,
    "address": "1208 State St, Santa Barbara, CA 93101",
    "city": "Santa Barbara",
    "state": "CA",
    "zipcode": "93101",
    "lat": 34.423783,
    "lng": -119.7046209,
    "info": "New-entry - unverified. Asian fusion inspired cuisine with unique alcohol-free cocktails like lemongrass sodas.",
    "venueType": "Restaurant",
    "website": "",
    "phone": "",
    "hours": "",
    "tags": ["restaurant", "asian-fusion", "alcohol-free"],
    "emoji": "\ud83c\udf75",
    "featuredDrinks": [],
    "instagram": "",
    "facebook": "",
    "confirmed": false,
    "featured": false
  },
  {
    "id": "the-collection-bar-oxnard",
    "name": "The Collection Bar",
    "promoted": false,
    "address": "2751 Park View Ct, Oxnard, CA 93036",
    "city": "Oxnard",
    "state": "CA",
    "zipcode": "93036",
    "lat": 34.2381589,
    "lng": -119.1780929,
    "info": "New-entry - unverified. High-end bar offering mocktail options.",
    "venueType": "Bar",
    "website": "",
    "phone": "",
    "hours": "",
    "tags": ["bar", "high-end", "alcohol-free"],
    "emoji": "\ud83c\udfdb\ufe0f",
    "featuredDrinks": [],
    "instagram": "",
    "facebook": "",
    "confirmed": false,
    "featured": false
  },
  {
    "id": "the-cruisery-sb",
    "name": "The Cruisery",
    "promoted": false,
    "address": "501 State St, Santa Barbara, CA 93101",
    "city": "Santa Barbara",
    "state": "CA",
    "zipcode": "93101",
    "lat": 34.4166272,
    "lng": -119.6959194,
    "info": "New-entry - unverified. Offers vibrant alcohol-free cocktails made with fresh, locally-sourced ingredients.",
    "venueType": "Bar",
    "website": "",
    "phone": "",
    "hours": "",
    "tags": ["bar", "vibrant", "alcohol-free"],
    "emoji": "\ud83c\udf3f",
    "featuredDrinks": [],
    "instagram": "",
    "facebook": "",
    "confirmed": false,
    "featured": false
  },
  {
    "id": "the-good-lion-sb",
    "name": "The Good Lion",
    "promoted": false,
    "address": "1212 State St, Santa Barbara, CA 93101",
    "city": "Santa Barbara",
    "state": "CA",
    "zipcode": "93101",
    "lat": 34.4237762,
    "lng": -119.7047601,
    "info": "New-entry - unverified. Modern cocktail lounge in the Arts & Theater district, offering seasonal alcohol-free cocktails.",
    "venueType": "Bar",
    "website": "",
    "phone": "",
    "hours": "",
    "tags": ["bar", "modern", "alcohol-free"],
    "emoji": "\ud83e\udd81",
    "featuredDrinks": [],
    "instagram": "",
    "facebook": "",
    "confirmed": false,
    "featured": false
  },
  {
    "id": "the-imperial-goleta",
    "name": "The Imperial",
    "promoted": false,
    "address": "320 S Kellogg Ave, Goleta, CA 93117",
    "city": "Goleta",
    "state": "CA",
    "zipcode": "93117",
    "lat": 34.4347347,
    "lng": -119.8197359,
    "info": "New-entry - unverified. Retro-style speakeasy offering handcrafted alcohol-free cocktails in a nostalgic atmosphere.",
    "venueType": "Bar",
    "website": "",
    "phone": "",
    "hours": "",
    "tags": ["bar", "speakeasy", "alcohol-free"],
    "emoji": "\ud83c\udff0",
    "featuredDrinks": [],
    "instagram": "",
    "facebook": "",
    "confirmed": false,
    "featured": false
  },
  {
    "id": "the-twist-on-main-ventura",
    "name": "The Twist on Main",
    "promoted": false,
    "address": "454 E Main St, Ventura, CA 93001",
    "city": "Ventura",
    "state": "CA",
    "zipcode": "93001",
    "lat": 34.2805485,
    "lng": -119.2938685,
    "info": "New-entry - unverified. Creative drink lounge offering creative alcohol-free cocktails like 'Run Run Rudolph' and 'Strawberry Fields'.",
    "venueType": "Bar",
    "website": "",
    "phone": "",
    "hours": "",
    "tags": ["bar", "creative", "alcohol-free"],
    "emoji": "\ud83c\udf79",
    "featuredDrinks": [],
    "instagram": "",
    "facebook": "",
    "confirmed": false,
    "featured": false
  },
  {
    "id": "test-pilot-sb",
    "name": "Test Pilot",
    "promoted": false,
    "address": "211 Helena Ave, Santa Barbara, CA 93101",
    "city": "Santa Barbara",
    "state": "CA",
    "zipcode": "93101",
    "lat": 34.414629,
    "lng": -119.6913546,
    "info": "New-entry - unverified. Island-style bar known for tropical alcohol-free cocktails like the Virgin Buccaneer.",
    "venueType": "Bar",
    "website": "",
    "phone": "",
    "hours": "",
    "tags": ["bar", "tropical", "alcohol-free"],
    "emoji": "\u2708\ufe0f",
    "featuredDrinks": [],
    "instagram": "",
    "facebook": "",
    "confirmed": false,
    "featured": false
  },
  {
    "id": "ventiki-tiki-lounge-ventura",
    "name": "VenTiki Tiki Lounge and Lanai",
    "promoted": false,
    "address": "701 E Main St, Ventura, CA 93001",
    "city": "Ventura",
    "state": "CA",
    "zipcode": "93001",
    "lat": 34.2809801,
    "lng": -119.2899018,
    "info": "New-entry - unverified. Tropical-themed bar known for tropical alcohol-free cocktails in a Polynesian-themed setting.",
    "venueType": "Bar",
    "website": "",
    "phone": "",
    "hours": "",
    "tags": ["bar", "tiki", "alcohol-free"],
    "emoji": "\ud83c\udf34",
    "featuredDrinks": [],
    "instagram": "",
    "facebook": "",
    "confirmed": false,
    "featured": false
  }
]
